{"0104":{"lat":"45.806","lng":"-70.397","name":"Jackman","state":"Maine","portcode":"0104"},"3308":{"lat":"49.000","lng":"-116.499","name":"Porthill","state":"Idaho","portcode":"3308"},"3325":{"lat":"49.000","lng":"-109.731","name":"Willow Creek","state":"Montana","portcode":"3325"},"3423":{"lat":"48.999","lng":"-95.377","name":"Warroad","state":"Minnesota","portcode":"3423"},"3321":{"lat":"48.997","lng":"-111.258","name":"Whitlash","state":"Montana","portcode":"3321"},"3323":{"lat":"48.999","lng":"-110.215","name":"Wildhorse","state":"Montana","portcode":"3323"},"3419":{"lat":"49.000","lng":"-101.017","name":"Westhope","state":"North Dakota","portcode":"3419"},"3310":{"lat":"48.998","lng":"-111.960","name":"Sweetgrass","state":"Montana","portcode":"3310"},"3009":{"lat":"49.002","lng":"-122.265","name":"Sumas","state":"Washington","portcode":"3009"},"0109":{"lat":"47.360","lng":"-68.329","name":"Madawaska","state":"Maine","portcode":"0109"},"3106":{"lat":"59.451","lng":"-136.362","name":"Dalton Cache","state":"Alaska","portcode":"3106"},"3425":{"lat":"49.000","lng":"-95.978","name":"Pinecreek","state":"Minnesota","portcode":"3425"},"3016":{"lat":"49.000","lng":"-118.224","name":"Laurier","state":"Washington","portcode":"3016"},"3020":{"lat":"49.000","lng":"-117.832","name":"Frontier","state":"Washington","portcode":"3020"},"3802":{"lat":"42.999","lng":"-82.424","name":"Port Huron","state":"Michigan","portcode":"3802"},"3401":{"lat":"49.000","lng":"-97.237","name":"Pembina","state":"North Dakota","portcode":"3401"},"0107":{"lat":"46.765","lng":"-67.789","name":"Fort Fairfield","state":"Maine","portcode":"0107"},"3104":{"lat":"62.615","lng":"-141.001","name":"Alcan","state":"Alaska","portcode":"3104"},"0715":{"lat":"44.992","lng":"-74.308","name":"Trout River","state":"New York","portcode":"0715"},"0115":{"lat":"45.189","lng":"-67.275","name":"Calais","state":"Maine","portcode":"0115"},"0118":{"lat":"46.925","lng":"-67.790","name":"Limestone","state":"Maine","portcode":"0118"},"3801":{"lat":"42.332","lng":"-83.048","name":"Detroit","state":"Michigan","portcode":"3801"},"0712":{"lat":"45.009","lng":"-73.453","name":"Champlain Rouses Point","state":"New York","portcode":"0712"},"0105":{"lat":"45.569","lng":"-67.429","name":"Vanceboro","state":"Maine","portcode":"0105"},"0708":{"lat":"44.347","lng":"-75.984","name":"Alexandria Bay","state":"New York","portcode":"0708"},"3019":{"lat":"49.000","lng":"-119.462","name":"Oroville","state":"Washington","portcode":"3019"},"3417":{"lat":"49.000","lng":"-103.809","name":"Fortuna","state":"North Dakota","portcode":"3417"},"3025":{"lat":"49.000","lng":"-117.299","name":"Metaline Falls","state":"Washington","portcode":"3025"},"0701":{"lat":"44.733","lng":"-75.458","name":"Ogdensburg","state":"New York","portcode":"0701"},"3414":{"lat":"48.999","lng":"-101.628","name":"Sherwood","state":"North Dakota","portcode":"3414"},"3415":{"lat":"49.000","lng":"-99.347","name":"Hansboro","state":"North Dakota","portcode":"3415"},"0108":{"lat":"47.160","lng":"-67.931","name":"Van Buren","state":"Maine","portcode":"0108"},"3302":{"lat":"49.001","lng":"-116.181","name":"Eastport","state":"Idaho","portcode":"3302"},"3015":{"lat":"49.001","lng":"-117.628","name":"Boundary","state":"Washington","portcode":"3015"},"3012":{"lat":"49.000","lng":"-118.504","name":"Danville","state":"Washington","portcode":"3012"},"3403":{"lat":"48.999","lng":"-102.552","name":"Portal","state":"North Dakota","portcode":"3403"},"3301":{"lat":"48.999","lng":"-104.574","name":"Raymond","state":"Montana","portcode":"3301"},"3306":{"lat":"49.000","lng":"-108.388","name":"Turner","state":"Montana","portcode":"3306"},"3422":{"lat":"48.999","lng":"-100.052","name":"Dunseith","state":"North Dakota","portcode":"3422"},"3004":{"lat":"48.994","lng":"-122.749","name":"Blaine","state":"Washington","portcode":"3004"},"3420":{"lat":"48.999","lng":"-103.004","name":"Noonan","state":"North Dakota","portcode":"3420"},"3424":{"lat":"48.719","lng":"-94.590","name":"Baudette","state":"Minnesota","portcode":"3424"},"0212":{"lat":"45.015","lng":"-73.085","name":"Highgate Springs","state":"Vermont","portcode":"0212"},"3604":{"lat":"48.608","lng":"-93.401","name":"International Falls","state":"Minnesota","portcode":"3604"},"3023":{"lat":"49.002","lng":"-122.485","name":"Kenneth G Ward","state":"Washington","portcode":"3023"},"3318":{"lat":"49.000","lng":"-115.056","name":"Roosville","state":"Montana","portcode":"3318"},"0211":{"lat":"45.011","lng":"-71.793","name":"Norton","state":"Vermont","portcode":"0211"},"3613":{"lat":"48.001","lng":"-89.585","name":"Grand Portage","state":"Minnesota","portcode":"3613"},"3319":{"lat":"49.000","lng":"-107.832","name":"Morgan","state":"Montana","portcode":"3319"},"3410":{"lat":"48.999","lng":"-103.487","name":"Ambrose","state":"North Dakota","portcode":"3410"},"3426":{"lat":"49.000","lng":"-95.766","name":"Roseau","state":"Minnesota","portcode":"3426"},"0704":{"lat":"44.991","lng":"-74.740","name":"Massena","state":"New York","portcode":"0704"},"3007":{"lat":"48.122","lng":"-123.431","name":"Port Angeles","state":"Washington","portcode":"3007"},"3421":{"lat":"48.999","lng":"-100.556","name":"Carbury","state":"North Dakota","portcode":"3421"},"3103":{"lat":"59.630","lng":"-135.164","name":"Skagway","state":"Alaska","portcode":"3103"},"0203":{"lat":"45.012","lng":"-72.589","name":"Richford","state":"Vermont","portcode":"0203"},"0209":{"lat":"45.006","lng":"-72.099","name":"Derby Line","state":"Vermont","portcode":"0209"},"3413":{"lat":"48.999","lng":"-101.296","name":"Antler","state":"North Dakota","portcode":"3413"},"3406":{"lat":"48.999","lng":"-102.275","name":"Northgate","state":"North Dakota","portcode":"3406"},"3803":{"lat":"46.509","lng":"-84.361","name":"Sault Sainte Marie","state":"Michigan","portcode":"3803"},"3430":{"lat":"49.000","lng":"-96.801","name":"Lancaster","state":"Minnesota","portcode":"3430"},"3013":{"lat":"49.000","lng":"-118.761","name":"Ferry","state":"Washington","portcode":"3013"},"0901":{"lat":"43.095","lng":"-79.056","name":"Buffalo Niagara Falls","state":"New York","portcode":"0901"},"3316":{"lat":"48.998","lng":"-113.379","name":"Piegan","state":"Montana","portcode":"3316"},"3409":{"lat":"49.000","lng":"-98.938","name":"Sarles","state":"North Dakota","portcode":"3409"},"0103":{"lat":"44.859","lng":"-66.980","name":"Eastport","state":"Maine","portcode":"0103"},"3017":{"lat":"49.002","lng":"-123.068","name":"Point Roberts","state":"Washington","portcode":"3017"},"0110":{"lat":"47.249","lng":"-68.604","name":"Fort Kent","state":"Maine","portcode":"0110"},"3322":{"lat":"48.999","lng":"-112.788","name":"Del Bonita","state":"Montana","portcode":"3322"},"3404":{"lat":"49.001","lng":"-97.557","name":"Neche","state":"North Dakota","portcode":"3404"},"0127":{"lat":"46.450","lng":"-67.785","name":"Bridgewater","state":"Maine","portcode":"0127"},"3407":{"lat":"49.000","lng":"-97.908","name":"Walhalla","state":"North Dakota","portcode":"3407"},"0106":{"lat":"46.135","lng":"-67.781","name":"Houlton","state":"Maine","portcode":"0106"},"3408":{"lat":"49.000","lng":"-98.694","name":"Hannah","state":"North Dakota","portcode":"3408"},"0206":{"lat":"45.013","lng":"-71.505","name":"Beecher Falls","state":"Vermont","portcode":"0206"},"3405":{"lat":"48.999","lng":"-99.659","name":"St John","state":"North Dakota","portcode":"3405"},"3011":{"lat":"49.000","lng":"-119.671","name":"Nighthawk","state":"Washington","portcode":"3011"},"3309":{"lat":"49.000","lng":"-105.408","name":"Scobey","state":"Montana","portcode":"3309"},"3814":{"lat":"42.618","lng":"-82.531","name":"Algonac","state":"Michigan","portcode":"3814"},"3317":{"lat":"49.000","lng":"-106.378","name":"Opheim","state":"Montana","portcode":"3317"},"3416":{"lat":"49.000","lng":"-98.365","name":"Maida","state":"North Dakota","portcode":"3416"},"0112":{"lat":"44.400","lng":"-68.225","name":"Bar Harbor","state":"Maine","portcode":"0112"},"0706":{"lat":"44.135","lng":"-76.352","name":"Cape Vincent","state":"New York","portcode":"0706"},"3102":{"lat":"55.342","lng":"-131.648","name":"Ketchikan","state":"Alaska","portcode":"3102"},"0101":{"lat":"43.659","lng":"-70.243","name":"Portland","state":"Maine","portcode":"0101"},"3402":{"lat":"49.000","lng":"-97.207","name":"Noyes","state":"Minnesota","portcode":"3402"},"3312":{"lat":"48.999","lng":"-105.162","name":"Whitetail","state":"Montana","portcode":"3312"},"3010":{"lat":"48.496","lng":"-122.600","name":"Anacortes","state":"Washington","portcode":"3010"},"3014":{"lat":"48.534","lng":"-123.016","name":"Friday Harbor","state":"Washington","portcode":"3014"}}